{
    "name": "The Pyramids of Giza",
    "city": "Giza",
    "country": "Egypt",
    "gps": {
        "lat": 29.976480,
        "lng": 31.131302
    }
}
db.monuments.insertOne(
  {
    "name": "The Pyramids of Giza",
    "city": "Giza",
    "country": "Egypt",
    "gps": {
      "lat": 29.976480,
      "lng": 31.131302
    }
  }
)
db.monuments.count()
db.monuments.insertMany([
  {"name": "The Valley of the Kings", "city": "Luxor", "country": "Egypt", "gps": { "lat": 25.746424, "lng": 32.605309 }},
  {"name": "Arc de Triomphe", "city": "Paris", "country": "France", "gps": { "lat": 48.873756, "lng": 2.294946 }},
  {"name": "The Eiffel Tower", "city": "Paris", "country": "France", "gps": { "lat": 48.858093, "lng": 2.294694 }},
  {"name": "Acropolis", "city": "Athens", "country": "Greece", "gps": { "lat": 37.970833, "lng": 23.726110 }},
  {"name": "The Great Wall of China", "city": "Huairou", "country": "China", "gps": { "lat": 40.431908, "lng": 116.570374 }},
  {"name": "The Statue of Liberty", "city": "New York", "country": "USA", "gps": { "lat": 40.689247, "lng": -74.044502 }}
])
db.monuments.count()

//update
db.monuments.updateOne(
  { "name": "Arc de Triomphe" },
  {
    $set: { "name": "Arc de Triomphe de l'Étoile" }
  }
)

db.monuments.find({"country": "France"}).pretty()
db.monuments.updateMany(
  { },
  {
    $set: { "editor": "Sammy" }
  }
)
//delete
db.monuments.deleteOne(
    { "name": "Arc de Triomphe de l'Étoile" }
)
db.monuments.find({"country": "France"}).pretty()
db.monuments.deleteMany(
  { "editor": "Sammy" }
)